{
  "events": [
    {
      "id": "66a89059cbf948cb7be66fa8",
      "title": "Doctor Appointment",
      "description": "Annual health check-up.",
      "location": {
        "address": "1 Infinite Loop",
        "city": "Cupertino",
        "country": "USA",
        "flag": "ðŸ‡ºðŸ‡¸",
        "coordinates": [
          37.3318,
          -122.0312
        ]
      },
      "startDate": "2024-08-02",
      "startTime": "09:00",
      "endDate": "2024-08-02",
      "endTime": "09:45",
      "user": "669e6b2504f38b78341d0722"
    },
    {
      "id": "66a89059cbf948cb7be66faa",
      "title": "Gym Session",
      "description": "Cardio and strength training.",
      "location": {
        "address": "221B Baker Street",
        "city": "London",
        "country": "UK",
        "flag": "ðŸ‡¬ðŸ‡§",
        "coordinates": [
          51.5237,
          -0.1586
        ]
      },
      "startDate": "2024-08-04",
      "startTime": "17:00",
      "endDate": "2024-08-04",
      "endTime": "18:30",
      "user": "669e6b2504f38b78341d0722"
    },
    {
      "id": "66a89059cbf948cb7be66fab",
      "title": "Conference Call.",
      "description": "Monthly update with the overseas team.",
      "location": {
        "address": "Rue Villiot",
        "houseNumber": "",
        "postCode": "75012",
        "city": "Paris",
        "state": "ÃŽle-de-France",
        "country": "Frankreich",
        "countryFlag": "ðŸ‡«ðŸ‡·",
        "coordinates": [
          48.84302835299519,
          2.3675537109375004
        ]
      },
      "startDate": "2024-08-05",
      "startTime": "20:00",
      "endDate": "2024-08-05",
      "endTime": "21:00",
      "user": "669e5cc27cfc9e9c10a609b6"
    },
    {
      "id": "66a89059cbf948cb7be66fac",
      "title": "Parent-Teacher Meeting",
      "description": "Discussing the progress of the kids.",
      "location": {
        "address": "Taj Mahal",
        "city": "Agra",
        "country": "India",
        "flag": "ðŸ‡®ðŸ‡³",
        "coordinates": [
          27.1751,
          78.0421
        ]
      },
      "startDate": "2024-08-06",
      "startTime": "15:00",
      "endDate": "2024-08-06",
      "endTime": "16:00",
      "user": "669e6b2504f38b78341d0722"
    },
    {
      "id": "66a89059cbf948cb7be66fad",
      "title": "Project Deadline",
      "description": "Final submission of the project report.",
      "location": {
        "address": "Poate Road",
        "houseNumber": "",
        "postCode": "2021",
        "city": "Sydney",
        "state": "NeusÃ¼dwales",
        "country": "Australien",
        "countryFlag": "ðŸ‡¦ðŸ‡º",
        "coordinates": [
          -33.89093747081252,
          151.22680664062503
        ]
      },
      "startDate": "2024-08-07",
      "startTime": "17:00",
      "endDate": "2024-08-07",
      "endTime": "18:00",
      "user": "669e5cc27cfc9e9c10a609b6"
    },
    {
      "id": "66a89059cbf948cb7be66fae",
      "title": "Dinner with Friends",
      "description": "Catching up with old friends.",
      "location": {
        "address": "Red Square",
        "city": "Moscow",
        "country": "Russia",
        "flag": "ðŸ‡·ðŸ‡º",
        "coordinates": [
          55.7539,
          37.6208
        ]
      },
      "startDate": "2024-08-08",
      "startTime": "19:00",
      "endDate": "2024-08-08",
      "endTime": "21:00",
      "user": "669e6b2504f38b78341d0722"
    },
    {
      "id": "66a89059cbf948cb7be66fb0",
      "title": "Weekend Getaway",
      "description": "A relaxing weekend trip.",
      "location": {
        "address": "Christ the Redeemer",
        "city": "Rio de Janeiro",
        "country": "Brazil",
        "flag": "ðŸ‡§ðŸ‡·",
        "coordinates": [
          -22.9519,
          -43.2105
        ]
      },
      "startDate": "2024-08-10",
      "startTime": "08:00",
      "endDate": "2024-08-12",
      "endTime": "20:00",
      "user": "669e6b2504f38b78341d0722"
    },
    {
      "id": "66a89059cbf948cb7be66fb1",
      "title": "Yoga Class",
      "description": "Evening yoga session.",
      "location": {
        "address": "Brommersvlei Road",
        "houseNumber": "",
        "postCode": "7735",
        "city": "Kapstadt",
        "state": "Westkap",
        "country": "SÃ¼dafrika",
        "countryFlag": "ðŸ‡¿ðŸ‡¦",
        "coordinates": [
          -34.00713506435885,
          18.435058593750004
        ]
      },
      "startDate": "2024-08-13",
      "startTime": "18:00",
      "endDate": "2024-08-13",
      "endTime": "19:30",
      "user": "669e5cc27cfc9e9c10a609b6"
    },
    {
      "id": "66a89059cbf948cb7be66fb2",
      "title": "Project Kickoff Meeting",
      "description": "Initial meeting for the new project.",
      "location": {
        "address": "Colosseum",
        "city": "Rome",
        "country": "Italy",
        "flag": "ðŸ‡®ðŸ‡¹",
        "coordinates": [
          41.8902,
          12.4922
        ]
      },
      "startDate": "2024-08-14",
      "startTime": "09:00",
      "endDate": "2024-08-14",
      "endTime": "10:30",
      "user": "669e6b2504f38b78341d0722"
    },
    {
      "id": "66a89059cbf948cb7be66fb3",
      "title": "Webinar",
      "description": "Online webinar on new technologies.",
      "location": {
        "address": "2nd Avenue",
        "houseNumber": "576",
        "postCode": "10016",
        "city": "New York",
        "state": "New York",
        "country": "Vereinigte Staaten von Amerika",
        "countryFlag": "ðŸ‡ºðŸ‡¸",
        "coordinates": [
          40.74309523218185,
          -73.97644042968751
        ]
      },
      "startDate": "2024-08-15",
      "startTime": "11:00",
      "endDate": "2024-08-15",
      "endTime": "12:00",
      "user": "669e5cc27cfc9e9c10a609b6"
    },
    {
      "id": "66a89059cbf948cb7be66fb4",
      "title": "Family Gathering",
      "description": "Family get-together.",
      "location": {
        "address": "Sagrada Familia",
        "city": "Barcelona",
        "country": "Spain",
        "flag": "ðŸ‡ªðŸ‡¸",
        "coordinates": [
          41.4036,
          2.1744
        ]
      },
      "startDate": "2024-08-16",
      "startTime": "14:00",
      "endDate": "2024-08-16",
      "endTime": "17:00",
      "user": "669e6b2504f38b78341d0722"
    },
    {
      "id": "64df6ebe-186d-4e86-84af-0af7e6d1a8af",
      "title": "Test Title",
      "description": "Test Description",
      "startDate": "2024-08-15T22:00:00.000Z",
      "endDate": "2024-08-17T22:00:00.000Z",
      "startTime": "10:25",
      "endTime": "15:55",
      "location": {
        "address": "MirecourtstraÃŸe",
        "houseNumber": "1",
        "postCode": "53225",
        "city": "Bonn",
        "state": "Nordrhein-Westfalen",
        "country": "Deutschland",
        "countryFlag": "ðŸ‡©ðŸ‡ª",
        "coordinates": [
          50.74340774029213,
          7.118527126912629
        ]
      },
      "user": "669e5cc27cfc9e9c10a609b6"
    },
    {
      "id": "b6b5231d-d025-48ec-a5fb-ca759037510d",
      "title": "Concert",
      "description": "Richard Bona",
      "startDate": "2024-08-14T22:00:00.000Z",
      "endDate": "2024-08-14T22:00:00.000Z",
      "startTime": "15:00",
      "endTime": "18:30",
      "location": {
        "address": "Kurt-Schumacher Str",
        "houseNumber": "78",
        "postCode": " 56626",
        "city": "Andernach",
        "state": " Rheinland-Pfalz",
        "country": " Deutschland",
        "countryFlag": "",
        "coordinates": [
          50.4391924,
          7.4023145
        ]
      },
      "user": "669e5cc27cfc9e9c10a609b6"
    },
    {
      "id": "f8f0f4b2-18de-43f0-8a25-3db5959129c5",
      "title": "Second Title",
      "description": "Second Description",
      "startDate": "2024-08-19T22:00:00.000Z",
      "endDate": "2024-08-20T22:00:00.000Z",
      "startTime": "18:30",
      "endTime": "20:30",
      "location": {
        "address": "Address",
        "houseNumber": "",
        "postCode": " 56743",
        "city": "Mendig",
        "state": " Rheinland-Pfalz",
        "country": " Deutschland",
        "countryFlag": "ðŸ‡©ðŸ‡ª",
        "coordinates": [
          50.3720933,
          7.2812427
        ]
      },
      "user": "669e5cc27cfc9e9c10a609b6"
    }
  ]
}