{
  "events": [
    {
      "id": "66a89059cbf948cb7be66fa7",
      "title": "Team Meeting",
      "description": "Quarterly project review meeting with the team.",
      "location": {
        "address": "1600 Amphitheatre Parkway",
        "city": "Mountain View",
        "country": "USA",
        "flag": "ðŸ‡ºðŸ‡¸",
        "coordinates": [37.422, -122.0841]
      },
      "startDate": "2024-08-01",
      "startTime": "10:00",
      "endDate": "2024-08-01",
      "endTime": "11:30",
      "user": "669e5cc27cfc9e9c10a609b6"
    },
    {
      "id": "66a89059cbf948cb7be66fa8",
      "title": "Doctor Appointment",
      "description": "Annual health check-up.",
      "location": {
        "address": "1 Infinite Loop",
        "city": "Cupertino",
        "country": "USA",
        "flag": "ðŸ‡ºðŸ‡¸",
        "coordinates": [37.3318, -122.0312]
      },
      "startDate": "2024-08-02",
      "startTime": "09:00",
      "endDate": "2024-08-02",
      "endTime": "09:45",
      "user": "669e6b2504f38b78341d0722"
    },
    {
      "id": "66a89059cbf948cb7be66fa9",
      "title": "Business Lunch",
      "description": "Lunch with potential clients.",
      "location": {
        "address": "Potsdamer Platz",
        "city": "Berlin",
        "country": "Germany",
        "flag": "ðŸ‡©ðŸ‡ª",
        "coordinates": [52.5096, 13.3756]
      },
      "startDate": "2024-08-03",
      "startTime": "12:30",
      "endDate": "2024-08-03",
      "endTime": "14:00",
      "user": "669e5cc27cfc9e9c10a609b6"
    },
    {
      "id": "66a89059cbf948cb7be66faa",
      "title": "Gym Session",
      "description": "Cardio and strength training.",
      "location": {
        "address": "221B Baker Street",
        "city": "London",
        "country": "UK",
        "flag": "ðŸ‡¬ðŸ‡§",
        "coordinates": [51.5237, -0.1586]
      },
      "startDate": "2024-08-04",
      "startTime": "17:00",
      "endDate": "2024-08-04",
      "endTime": "18:30",
      "user": "669e6b2504f38b78341d0722"
    },
    {
      "id": "66a89059cbf948cb7be66fab",
      "title": "Conference Call",
      "description": "Monthly update with the overseas team.",
      "location": {
        "address": "Eiffel Tower",
        "city": "Paris",
        "country": "France",
        "flag": "ðŸ‡«ðŸ‡·",
        "coordinates": [48.8584, 2.2945]
      },
      "startDate": "2024-08-05",
      "startTime": "20:00",
      "endDate": "2024-08-05",
      "endTime": "21:00",
      "user": "669e5cc27cfc9e9c10a609b6"
    },
    {
      "id": "66a89059cbf948cb7be66fac",
      "title": "Parent-Teacher Meeting",
      "description": "Discussing the progress of the kids.",
      "location": {
        "address": "Taj Mahal",
        "city": "Agra",
        "country": "India",
        "flag": "ðŸ‡®ðŸ‡³",
        "coordinates": [27.1751, 78.0421]
      },
      "startDate": "2024-08-06",
      "startTime": "15:00",
      "endDate": "2024-08-06",
      "endTime": "16:00",
      "user": "669e6b2504f38b78341d0722"
    },
    {
      "id": "66a89059cbf948cb7be66fad",
      "title": "Project Deadline",
      "description": "Final submission of the project report.",
      "location": {
        "address": "Sydney Opera House",
        "city": "Sydney",
        "country": "Australia",
        "flag": "ðŸ‡¦ðŸ‡º",
        "coordinates": [-33.8568, 151.2153]
      },
      "startDate": "2024-08-07",
      "startTime": "17:00",
      "endDate": "2024-08-07",
      "endTime": "18:00",
      "user": "669e5cc27cfc9e9c10a609b6"
    },
    {
      "id": "66a89059cbf948cb7be66fae",
      "title": "Dinner with Friends",
      "description": "Catching up with old friends.",
      "location": {
        "address": "Red Square",
        "city": "Moscow",
        "country": "Russia",
        "flag": "ðŸ‡·ðŸ‡º",
        "coordinates": [55.7539, 37.6208]
      },
      "startDate": "2024-08-08",
      "startTime": "19:00",
      "endDate": "2024-08-08",
      "endTime": "21:00",
      "user": "669e6b2504f38b78341d0722"
    },
    {
      "id": "66a89059cbf948cb7be66faf",
      "title": "Client Presentation",
      "description": "Presenting the new project proposal.",
      "location": {
        "address": "Great Wall of China",
        "city": "Beijing",
        "country": "China",
        "flag": "ðŸ‡¨ðŸ‡³",
        "coordinates": [40.4319, 116.5704]
      },
      "startDate": "2024-08-09",
      "startTime": "10:00",
      "endDate": "2024-08-09",
      "endTime": "12:00",
      "user": "669e5cc27cfc9e9c10a609b6"
    },
    {
      "id": "66a89059cbf948cb7be66fb0",
      "title": "Weekend Getaway",
      "description": "A relaxing weekend trip.",
      "location": {
        "address": "Christ the Redeemer",
        "city": "Rio de Janeiro",
        "country": "Brazil",
        "flag": "ðŸ‡§ðŸ‡·",
        "coordinates": [-22.9519, -43.2105]
      },
      "startDate": "2024-08-10",
      "startTime": "08:00",
      "endDate": "2024-08-12",
      "endTime": "20:00",
      "user": "669e6b2504f38b78341d0722"
    },
    {
      "id": "66a89059cbf948cb7be66fb1",
      "title": "Yoga Class",
      "description": "Evening yoga session.",
      "location": {
        "address": "Table Mountain",
        "city": "Cape Town",
        "country": "South Africa",
        "flag": "ðŸ‡¿ðŸ‡¦",
        "coordinates": [-33.9628, 18.4098]
      },
      "startDate": "2024-08-13",
      "startTime": "18:00",
      "endDate": "2024-08-13",
      "endTime": "19:30",
      "user": "669e5cc27cfc9e9c10a609b6"
    },
    {
      "id": "66a89059cbf948cb7be66fb2",
      "title": "Project Kickoff Meeting",
      "description": "Initial meeting for the new project.",
      "location": {
        "address": "Colosseum",
        "city": "Rome",
        "country": "Italy",
        "flag": "ðŸ‡®ðŸ‡¹",
        "coordinates": [41.8902, 12.4922]
      },
      "startDate": "2024-08-14",
      "startTime": "09:00",
      "endDate": "2024-08-14",
      "endTime": "10:30",
      "user": "669e6b2504f38b78341d0722"
    },
    {
      "id": "66a89059cbf948cb7be66fb3",
      "title": "Webinar",
      "description": "Online webinar on new technologies.",
      "location": {
        "address": "Empire State Building",
        "city": "New York",
        "country": "USA",
        "flag": "ðŸ‡ºðŸ‡¸",
        "coordinates": [40.7488, -73.9857]
      },
      "startDate": "2024-08-15",
      "startTime": "11:00",
      "endDate": "2024-08-15",
      "endTime": "12:00",
      "user": "669e5cc27cfc9e9c10a609b6"
    },
    {
      "id": "66a89059cbf948cb7be66fb4",
      "title": "Family Gathering",
      "description": "Family get-together.",
      "location": {
        "address": "Sagrada Familia",
        "city": "Barcelona",
        "country": "Spain",
        "flag": "ðŸ‡ªðŸ‡¸",
        "coordinates": [41.4036, 2.1744]
      },
      "startDate": "2024-08-16",
      "startTime": "14:00",
      "endDate": "2024-08-16",
      "endTime": "17:00",
      "user": "669e6b2504f38b78341d0722"
    },
    {
      "id": "66a89059cbf948cb7be66fb5",
      "title": "Book Club Meeting",
      "description": "Discussing the monthly book.",
      "location": {
        "address": "Burj Khalifa",
        "city": "Dubai",
        "country": "UAE",
        "flag": "ðŸ‡¦ðŸ‡ª",
        "coordinates": [25.1972, 55.2744]
      },
      "startDate": "2024-08-17",
      "startTime": "18:00",
      "endDate": "2024-08-17",
      "endTime": "19:30",
      "user": "669e5cc27cfc9e9c10a609b6"
    }
  ]
}
